[
  
  {
    "id": 7778677,
    "name": "Dublin City",
    "country": "IE",
    "coord": {
      "lon": -6.24922,
      "lat": 53.355122
    }
  },
  {
    "id": 2964574,
    "name": "Dublin",
    "country": "IE",
    "coord": {
      "lon": -6.26719,
      "lat": 53.34399
    }
  },
  {
    "id": 7869980,
    "name": "Gurranebraher",
    "country": "IE",
    "coord": {
      "lon": -8.48857,
      "lat": 51.903271
    }
  },
  {
    "id": 2964752,
    "name": "Donegal",
    "country": "IE",
    "coord": {
      "lon": -8.11667,
      "lat": 54.650002
    }
  },
  {
    "id": 2966566,
    "name": "Ballyhaunis",
    "country": "IE",
    "coord": {
      "lon": -8.76667,
      "lat": 53.76667
    }
  },
  {
    "id": 2960992,
    "name": "Waterford",
    "country": "IE",
    "coord": {
      "lon": -7.11194,
      "lat": 52.258331
    }
  },
  {
    "id": 2961297,
    "name": "Swords",
    "country": "IE",
    "coord": {
      "lon": -6.21806,
      "lat": 53.459721
    }
  },
  {
    "id": 2962793,
    "name": "Lú",
    "country": "IE",
    "coord": {
      "lon": -6.5,
      "lat": 53.833328
    }
  },
  {
    "id": 2962794,
    "name": "Louth",
    "country": "IE",
    "coord": {
      "lon": -6.54139,
      "lat": 53.948608
    }
  },
  {
    "id": 2964180,
    "name": "Gaillimh",
    "country": "IE",
    "coord": {
      "lon": -9.04889,
      "lat": 53.271938
    }
  },
  {
    "id": 2962941,
    "name": "County Limerick",
    "country": "IE",
    "coord": {
      "lon": -8.75,
      "lat": 52.5
    }
  },
  {
    "id": 2962943,
    "name": "Luimneach",
    "country": "IE",
    "coord": {
      "lon": -8.62306,
      "lat": 52.664719
    }
  },
  {
    "id": 2963311,
    "name": "Killorglin",
    "country": "IE",
    "coord": {
      "lon": -9.78333,
      "lat": 52.099998
    }
  },
  {
    "id": 2966837,
    "name": "Athy",
    "country": "IE",
    "coord": {
      "lon": -6.98028,
      "lat": 52.99139
    }
  },
  {
    "id": 2962839,
    "name": "An Longfort",
    "country": "IE",
    "coord": {
      "lon": -7.75,
      "lat": 53.666672
    }
  },
  {
    "id": 2962840,
    "name": "Longford",
    "country": "IE",
    "coord": {
      "lon": -7.8,
      "lat": 53.73333
    }
  },
  {
    "id": 3313472,
    "name": "Athlone",
    "country": "IE",
    "coord": {
      "lon": -7.93722,
      "lat": 53.422779
    }
  },
  {
    "id": 2961422,
    "name": "Sligo",
    "country": "IE",
    "coord": {
      "lon": -8.66667,
      "lat": 54.25
    }
  },
  {
    "id": 3311197,
    "name": "Magheraboy",
    "country": "IE",
    "coord": {
      "lon": -8.49444,
      "lat": 54.26889
    }
  },
  {
    "id": 2965381,
    "name": "Clondalkin",
    "country": "IE",
    "coord": {
      "lon": -6.39722,
      "lat": 53.32444
    }
  },
  {
    "id": 2963528,
    "name": "Kells",
    "country": "IE",
    "coord": {
      "lon": -6.87917,
      "lat": 53.726391
    }
  },
  {
    "id": 2962334,
    "name": "Naas",
    "country": "IE",
    "coord": {
      "lon": -6.66694,
      "lat": 53.215832
    }
  },
  {
    "id": 2962187,
    "name": "Uíbh Fhailí",
    "country": "IE",
    "coord": {
      "lon": -7.5,
      "lat": 53.25
    }
  },
  {
    "id": 2961086,
    "name": "Tullamore",
    "country": "IE",
    "coord": {
      "lon": -7.48889,
      "lat": 53.273891
    }
  },
  {
    "id": 3315287,
    "name": "Rathgar",
    "country": "IE",
    "coord": {
      "lon": -6.275,
      "lat": 53.314571
    }
  },
  {
    "id": 2961896,
    "name": "Rathmines",
    "country": "IE",
    "coord": {
      "lon": -6.26333,
      "lat": 53.320278
    }
  },
  {
    "id": 7838913,
    "name": "Dun Laoghire",
    "country": "IE",
    "coord": {
      "lon": -6.13604,
      "lat": 53.289742
    }
  },
  {
    "id": 2965535,
    "name": "Cavan",
    "country": "IE",
    "coord": {
      "lon": -7.36056,
      "lat": 53.990829
    }
  },
  {
    "id": 2962308,
    "name": "Navan",
    "country": "IE",
    "coord": {
      "lon": -6.68139,
      "lat": 53.652779
    }
  },
  {
    "id": 2961731,
    "name": "Roscommon",
    "country": "IE",
    "coord": {
      "lon": -8.25,
      "lat": 53.75
    }
  },
  {
    "id": 2961732,
    "name": "Roscommon",
    "country": "IE",
    "coord": {
      "lon": -8.18333,
      "lat": 53.633331
    }
  },
  {
    "id": 2963848,
    "name": "Greystones",
    "country": "IE",
    "coord": {
      "lon": -6.06306,
      "lat": 53.140831
    }
  },
  {
    "id": 2964661,
    "name": "Drogheda",
    "country": "IE",
    "coord": {
      "lon": -6.34778,
      "lat": 53.718891
    }
  },
  {
    "id": 2965654,
    "name": "Castlebar",
    "country": "IE",
    "coord": {
      "lon": -9.3,
      "lat": 53.849998
    }
  },
  {
    "id": 7288565,
    "name": "South Dublin",
    "country": "IE",
    "coord": {
      "lon": -6.37739,
      "lat": 53.28595
    }
  },
  {
    "id": 3315270,
    "name": "Ballymount",
    "country": "IE",
    "coord": {
      "lon": -6.36389,
      "lat": 53.31361
    }
  },
  {
    "id": 2964540,
    "name": "Dundalk",
    "country": "IE",
    "coord": {
      "lon": -6.41667,
      "lat": 54
    }
  },
  {
    "id": 2961284,
    "name": "Tallaght",
    "country": "IE",
    "coord": {
      "lon": -6.37344,
      "lat": 53.2859
    }
  },
  {
    "id": 6697759,
    "name": "South Dublin",
    "country": "IE",
    "coord": {
      "lon": -6.34151,
      "lat": 53.29026
    }
  },
  {
    "id": 3315304,
    "name": "Artane",
    "country": "IE",
    "coord": {
      "lon": -6.2138,
      "lat": 53.387119
    }
  },
  {
    "id": 6691030,
    "name": "Coolock",
    "country": "IE",
    "coord": {
      "lon": -6.19998,
      "lat": 53.388699
    }
  },
  {
    "id": 2961099,
    "name": "Tuam",
    "country": "IE",
    "coord": {
      "lon": -8.85,
      "lat": 53.51667
    }
  },
  {
    "id": 2965260,
    "name": "Cobh",
    "country": "IE",
    "coord": {
      "lon": -8.29917,
      "lat": 51.85722
    }
  },
  {
    "id": 2965230,
    "name": "Connolly",
    "country": "IE",
    "coord": {
      "lon": -9.19306,
      "lat": 52.829441
    }
  },
  {
    "id": 2965573,
    "name": "Castlepollard",
    "country": "IE",
    "coord": {
      "lon": -7.3,
      "lat": 53.666672
    }
  },
  {
    "id": 2962567,
    "name": "County Monaghan",
    "country": "IE",
    "coord": {
      "lon": -7,
      "lat": 54.25
    }
  },
  {
    "id": 2962568,
    "name": "Monaghan",
    "country": "IE",
    "coord": {
      "lon": -6.96667,
      "lat": 54.25
    }
  },
  {
    "id": 2964405,
    "name": "Ennis",
    "country": "IE",
    "coord": {
      "lon": -8.98639,
      "lat": 52.843609
    }
  },
  {
    "id": 2963986,
    "name": "Glynn",
    "country": "IE",
    "coord": {
      "lon": -6.90417,
      "lat": 52.50333
    }
  },
  {
    "id": 2961589,
    "name": "Sandymount",
    "country": "IE",
    "coord": {
      "lon": -6.21139,
      "lat": 53.334999
    }
  },
  {
    "id": 2961816,
    "name": "Ringsend",
    "country": "IE",
    "coord": {
      "lon": -6.22639,
      "lat": 53.341942
    }
  },
  {
    "id": 2966360,
    "name": "Bansha",
    "country": "IE",
    "coord": {
      "lon": -8.0625,
      "lat": 52.448059
    }
  },
  {
    "id": 2961388,
    "name": "Spiddal",
    "country": "IE",
    "coord": {
      "lon": -9.30278,
      "lat": 53.24667
    }
  },
  {
    "id": 2962465,
    "name": "Mountrath",
    "country": "IE",
    "coord": {
      "lon": -7.47278,
      "lat": 52.99889
    }
  },
  {
    "id": 2967092,
    "name": "Abbeyleix",
    "country": "IE",
    "coord": {
      "lon": -7.3575,
      "lat": 52.89917
    }
  },
  {
    "id": 2966131,
    "name": "Blackrock",
    "country": "IE",
    "coord": {
      "lon": -6.1778,
      "lat": 53.301498
    }
  },
  {
    "id": 6691046,
    "name": "Sion Hill",
    "country": "IE",
    "coord": {
      "lon": -6.18642,
      "lat": 53.303799
    }
  },
  {
    "id": 2964403,
    "name": "Enniscorthy",
    "country": "IE",
    "coord": {
      "lon": -6.55778,
      "lat": 52.500832
    }
  },
  {
    "id": 3315319,
    "name": "Cabra",
    "country": "IE",
    "coord": {
      "lon": -6.29444,
      "lat": 53.36694
    }
  },
  {
    "id": 3315278,
    "name": "Sandyford",
    "country": "IE",
    "coord": {
      "lon": -6.2253,
      "lat": 53.2747
    }
  },
  {
    "id": 2962961,
    "name": "Letterkenny",
    "country": "IE",
    "coord": {
      "lon": -7.73333,
      "lat": 54.950001
    }
  },
  {
    "id": 2962290,
    "name": "Droichead Nua",
    "country": "IE",
    "coord": {
      "lon": -6.79667,
      "lat": 53.181938
    }
  },
  {
    "id": 2966356,
    "name": "Bantry",
    "country": "IE",
    "coord": {
      "lon": -9.45,
      "lat": 51.683331
    }
  },
  {
    "id": 2965664,
    "name": "Cashel",
    "country": "IE",
    "coord": {
      "lon": -7.88556,
      "lat": 52.515831
    }
  },
  {
    "id": 2964528,
    "name": "Dungarvan",
    "country": "IE",
    "coord": {
      "lon": -7.62528,
      "lat": 52.088058
    }
  },
  {
    "id": 2966154,
    "name": "Birr",
    "country": "IE",
    "coord": {
      "lon": -7.91333,
      "lat": 53.091389
    }
  },
  {
    "id": 2966110,
    "name": "Blanchardstown",
    "country": "IE",
    "coord": {
      "lon": -6.37556,
      "lat": 53.388062
    }
  },
  {
    "id": 3315268,
    "name": "Belgard",
    "country": "IE",
    "coord": {
      "lon": -6.39667,
      "lat": 53.303059
    }
  },
  {
    "id": 2965353,
    "name": "Cluain Meala",
    "country": "IE",
    "coord": {
      "lon": -7.70389,
      "lat": 52.355
    }
  },
  {
    "id": 2966925,
    "name": "Ardee",
    "country": "IE",
    "coord": {
      "lon": -6.54056,
      "lat": 53.859718
    }
  },
  {
    "id": 3311206,
    "name": "Willsborough",
    "country": "IE",
    "coord": {
      "lon": -8.44083,
      "lat": 54.29417
    }
  },
  {
    "id": 3316393,
    "name": "Smithstown",
    "country": "IE",
    "coord": {
      "lon": -6.29972,
      "lat": 53.685001
    }
  },
  {
    "id": 2962974,
    "name": "Leixlip",
    "country": "IE",
    "coord": {
      "lon": -6.49556,
      "lat": 53.365829
    }
  },
  {
    "id": 2963370,
    "name": "Cill Airne",
    "country": "IE",
    "coord": {
      "lon": -9.51667,
      "lat": 52.049999
    }
  },
  {
    "id": 3315315,
    "name": "Ballymun",
    "country": "IE",
    "coord": {
      "lon": -6.26693,
      "lat": 53.398071
    }
  },
  {
    "id": 3310979,
    "name": "Claddagh",
    "country": "IE",
    "coord": {
      "lon": -8.90806,
      "lat": 54.022781
    }
  },
  {
    "id": 2964547,
    "name": "Dunboyne",
    "country": "IE",
    "coord": {
      "lon": -6.46667,
      "lat": 53.400002
    }
  },
  {
    "id": 2965913,
    "name": "Bunratty",
    "country": "IE",
    "coord": {
      "lon": -8.81556,
      "lat": 52.696671
    }
  },
  {
    "id": 3314339,
    "name": "Ballydavis",
    "country": "IE",
    "coord": {
      "lon": -7.24556,
      "lat": 53.047218
    }
  },
  {
    "id": 6691007,
    "name": "Goatstown",
    "country": "IE",
    "coord": {
      "lon": -6.23019,
      "lat": 53.29221
    }
  },
  {
    "id": 2962668,
    "name": "Maynooth",
    "country": "IE",
    "coord": {
      "lon": -6.59361,
      "lat": 53.384998
    }
  }
  
]